{"type": "FeatureCollection", "features": [{"type": "Feature", "properties": {"address": "833 Wayne Ave, Silver Spring, MD 20910, United States", "store_name": "Whole Foods Market", "rating": 4.2}, "geometry": {"type": "Point", "coordinates": [-77.0241512, 38.9961273]}}, {"type": "Feature", "properties": {"address": "6621-B Baltimore Ave, Riverdale Park, MD 20737, United States", "store_name": "Whole Foods Market", "rating": 4.4}, "geometry": {"type": "Point", "coordinates": [-76.9366106, 38.969187700000006]}}, {"type": "Feature", "properties": {"address": "11355 Woodglen Dr, Rockville, MD 20852, United States", "store_name": "Whole Foods Market", "rating": 4.3}, "geometry": {"type": "Point", "coordinates": [-77.11313759999999, 39.0430696]}}, {"type": "Feature", "properties": {"address": "4420 Willard Ave, Chevy Chase, MD 20815, United States", "store_name": "Whole Foods Market", "rating": 4.3}, "geometry": {"type": "Point", "coordinates": [-77.0867545, 38.9613149]}}, {"type": "Feature", "properties": {"address": "5269 River Rd, Bethesda, MD 20816, United States", "store_name": "Whole Foods Market", "rating": 4.1}, "geometry": {"type": "Point", "coordinates": [-77.1041985, 38.966316600000006]}}, {"type": "Feature", "properties": {"address": "10275 Little Patuxent Pkwy, Columbia, MD 21044, United States", "store_name": "Whole Foods Market", "rating": 4.3}, "geometry": {"type": "Point", "coordinates": [-76.8557901, 39.213936700000005]}}, {"type": "Feature", "properties": {"address": "316 Kentlands Blvd, Gaithersburg, MD 20878, United States", "store_name": "Whole Foods Market", "rating": 4.3}, "geometry": {"type": "Point", "coordinates": [-77.237821, 39.12260070000001]}}, {"type": "Feature", "properties": {"address": "1905 Clarkson Way, Landover, MD 20785, United States", "store_name": "Whole Foods Market Distribution Center", "rating": 3.5}, "geometry": {"type": "Point", "coordinates": [-76.902339, 38.915929]}}, {"type": "Feature", "properties": {"address": "200 Harker Pl Ste 100, Annapolis, MD 21401, USA", "store_name": "Whole Foods Market", "rating": 4.4}, "geometry": {"type": "Point", "coordinates": [-76.54033340000001, 38.9819662]}}, {"type": "Feature", "properties": {"address": "711 S Central Ave, Baltimore, MD 21202, United States", "store_name": "Whole Foods Market", "rating": 4.3}, "geometry": {"type": "Point", "coordinates": [-76.59870550000001, 39.2825112]}}, {"type": "Feature", "properties": {"address": "1330 Smith Ave, Baltimore, MD 21209, United States", "store_name": "Whole Foods Market", "rating": 4.3}, "geometry": {"type": "Point", "coordinates": [-76.6498445, 39.3684185]}}, {"type": "Feature", "properties": {"address": "9801 Rhode Island Ave, College Park, MD 20740, United States", "store_name": "MOM's Organic Market", "rating": 4.7}, "geometry": {"type": "Point", "coordinates": [-76.91998509999999, 39.0138761]}}, {"type": "Feature", "properties": {"address": "10 Upper Rock Cir, Rockville, MD 20850, United States", "store_name": "MOM's Organic Market Gaithersburg", "rating": 4.7}, "geometry": {"type": "Point", "coordinates": [-77.1845173, 39.113414500000005]}}, {"type": "Feature", "properties": {"address": "5566 Randolph Rd, Rockville, MD 20852, United States", "store_name": "MOM's Organic Market", "rating": 4.7}, "geometry": {"type": "Point", "coordinates": [-77.11225329999999, 39.0530188]}}, {"type": "Feature", "properties": {"address": "7351 Assateague Dr #190, Jessup, MD 20794, USA", "store_name": "MOM's Organic Market", "rating": 4.7}, "geometry": {"type": "Point", "coordinates": [-76.78519250000001, 39.169457200000004]}}, {"type": "Feature", "properties": {"address": "5267 Campbell Blvd, Nottingham, MD 21236, USA", "store_name": "MOM's Organic Market", "rating": 4.6}, "geometry": {"type": "Point", "coordinates": [-76.45339990000001, 39.367609200000004]}}, {"type": "Feature", "properties": {"address": "6824 Race Track Rd, Bowie, MD 20715, United States", "store_name": "MOM's Organic Market", "rating": 4.8}, "geometry": {"type": "Point", "coordinates": [-76.7303178, 38.9824064]}}, {"type": "Feature", "properties": {"address": "3301 Plaza Dr, Waldorf, MD 20603, United States", "store_name": "MOM's Organic Market", "rating": 4.7}, "geometry": {"type": "Point", "coordinates": [-76.91769790000001, 38.6221907]}}, {"type": "Feature", "properties": {"address": "711 W 40th St #163, Baltimore, MD 21211, USA", "store_name": "MOM's Organic Market", "rating": 4.6}, "geometry": {"type": "Point", "coordinates": [-76.6308361, 39.3363083]}}, {"type": "Feature", "properties": {"address": "20 W Ridgely Rd, Lutherville-Timonium, MD 21093, United States", "store_name": "MOM's Organic Market", "rating": 4.6}, "geometry": {"type": "Point", "coordinates": [-76.6231647, 39.4307111]}}, {"type": "Feature", "properties": {"address": "5273 Buckeystown Pike, Frederick, MD 21703, United States", "store_name": "MOM's Organic Market", "rating": 4.3}, "geometry": {"type": "Point", "coordinates": [-77.4127173, 39.3759284]}}, {"type": "Feature", "properties": {"address": "5612 Randolph Rd, Rockville, MD 20852, United States", "store_name": "MOM's Central Store Support", "rating": 4.6}, "geometry": {"type": "Point", "coordinates": [-77.1122829, 39.053143799999994]}}, {"type": "Feature", "properties": {"address": "9150 Baltimore National Pike Ste 1, Ellicott City, MD 21042, USA", "store_name": "Sprouts Farmers Market", "rating": 4.5}, "geometry": {"type": "Point", "coordinates": [-76.82647, 39.27805]}}, {"type": "Feature", "properties": {"address": "3800 Boston St, Baltimore, MD 21224, USA", "store_name": "Sprouts Farmers Market", "rating": 4.6}, "geometry": {"type": "Point", "coordinates": [-76.56358409999999, 39.2778083]}}, {"type": "Feature", "properties": {"address": "803 Goucher Blvd, Towson, MD 21286, United States", "store_name": "Sprouts Farmers Market", "rating": 4.6}, "geometry": {"type": "Point", "coordinates": [-76.584404, 39.39763]}}, {"type": "Feature", "properties": {"address": "680 Marketplace Dr, Bel Air, MD 21014, USA", "store_name": "Sprouts Farmers Market", "rating": 4.3}, "geometry": {"type": "Point", "coordinates": [-76.35165400000001, 39.522533]}}, {"type": "Feature", "properties": {"address": "8048 Ritchie Hwy Ste 6B, Pasadena, MD 21122, United States", "store_name": "Sprouts Farmers Market", "rating": 4.5}, "geometry": {"type": "Point", "coordinates": [-76.59182, 39.12527]}}]}